id,city,latitude,longitude,country
1,Iwye,53.9323017,25.7774859,Belarus
2,Baokou,23.213961,115.203506,China
3,Xiaotang,30.738569,107.2143287,China
4,Janaka,-6.3323352,105.8671954,Indonesia
5,Lewin Kłodzki,50.4056168,16.2909777,Poland
6,Sankui,27.424294,119.914874,China
7,Planken,47.1792078,9.5678116,Liechtenstein
8,Jamundí,3.1377116,-76.5929658,Colombia
9,Újezd,49.7647258,16.9050077,Czech Republic
10,Pudoc,15.7700153,121.5561657,Philippines
11,Kampen (Overijssel),52.5577627,5.8915635,Netherlands
12,Hongshan,22.517585,113.39277,China
13,Logroño,42.4914204,-2.522269,Spain
14,Kävlinge,55.7309365,13.1779513,Sweden
15,Tha Maka,13.9317086,99.7846002,Thailand
16,Suphan Buri,14.5396049,99.9970034,Thailand
17,Bus’k,49.9693586,24.6094605,Ukraine
18,Taloko,-8.4181686,118.2818967,Indonesia
19,Krasnokamensk,54.3141155,93.2187293,Russia
20,Furukawa,37.3844286,140.3940646,Japan
21,Gongpo,19.789147,110.808679,China
22,Ushuaia,-54.8079502,-68.3214955,Argentina
23,Laranjeiras,-10.8064536,-37.1901616,Brazil
24,Pucara,-15.0418557,-70.3673152,Peru
25,Ferraz de Vasconcelos,-23.5441298,-46.3660676,Brazil
26,Finote Selam,10.6794457,37.2597576,Ethiopia
27,San José de Colinas,15.040667,-88.3020602,Honduras
28,Wola Sernicka,51.4492786,22.6839074,Poland
29,Niafunké,16.0271237,-3.9878427,Mali
30,Tonghu,41.728401,125.939697,China
31,Vila Pouca da Beira,40.3073139,-7.9200214,Portugal
32,Casal,41.2529921,-7.9536382,Portugal
33,Barbacoas,9.4811641,-66.9719947,Venezuela
34,Feikeng,36.182571,116.768358,China
35,Tinaco,9.7076223,-68.4352835,Venezuela
36,Praia das Maçãs,38.8220976,-9.4623504,Portugal
37,Impendle,-29.6731137,29.9590375,South Africa
38,Plato,9.791337,-74.7975249,Colombia
39,Limeiras,39.4883941,-8.3535831,Portugal
40,Sainte-Agathe-des-Monts,46.0474907,-74.2739552,Canada
41,Talabaan,14.6291868,121.0893745,Philippines
42,Bích Động,21.0345812,106.3265126,Vietnam
43,Saynshand,44.8990915,110.1065717,Mongolia
44,Monte Alto,-21.2846176,-48.5316897,Brazil
45,Binafun,-9.6635623,124.0251538,Indonesia
46,Liuhao,41.7678247,123.2622257,China
47,Jiji,22.2481519,113.5755553,China
48,Dongshandi,23.701262,117.430061,China
49,Sindangjawa,-6.764566,108.4496053,Indonesia
50,Düsseldorf,51.2149435,6.7825598,Germany
51,Mulawato,-8.3257,123.1505,Indonesia
52,Lakatnik,43.082258,23.3786254,Bulgaria
53,Foz Sousa,41.0909864,-8.4901287,Portugal
54,Maceda,40.935201,-8.6143168,Portugal
55,Preobrazhenka,46.4799835,30.7319718,Ukraine
56,Novi Slankamen,45.1088945,20.2323594,Serbia
57,Novoalekseyevskaya,44.8238879,40.9170843,Russia
58,Circa,-13.8791041,-72.875917,Peru
59,Xike,31.228026,121.454211,China
60,Bluefields,18.1741581,-78.0295273,Jamaica
61,Saint-Quentin-Fallavier,45.632343,5.112589,France
62,N’dalatando,-9.2993916,14.9096846,Angola
63,Yichun,27.815743,114.416785,China
64,Ipaba,-19.4085525,-42.374164,Brazil
65,Varnávas,38.2238615,23.9232894,Greece
66,Šenčur,46.2433699,14.4192223,Slovenia
67,Guamo,4.02926,-74.974795,Colombia
68,Kertayuga,-7.0320658,108.4365067,Indonesia
69,São Miguel dos Campos,-9.7625469,-36.1328132,Brazil
70,Tuquan,45.38193,121.593799,China
71,Sinargalih,-7.2578991,107.8632023,Indonesia
72,Zhangpu,24.117102,117.613808,China
73,Dongfeng,31.236833,121.532286,China
74,Hpa-an,16.875913,97.6439611,Myanmar
75,Shaxi,26.312444,99.850365,China
76,Tacheng,46.748522,82.978928,China
77,Pirallahı,40.4746848,50.3334447,Azerbaijan
78,Bébédja,8.6761,16.566,Chad
79,Stavanger,58.9015864,5.7123282,Norway
80,Nentón,15.8303364,-91.7183488,Guatemala
81,Caçapava,-23.0939881,-45.6964547,Brazil
82,Zuhu,39.732646,112.040028,China
83,Hengtanggang,31.535184,116.513899,China
84,Sastöbe,42.5530523,70.0024837,Kazakhstan
85,Claver,9.541232,125.820626,Philippines
86,Castelsarrasin,44.0643415,1.1011089,France
87,Obrenovac,44.596795,20.1242053,Serbia
88,Ängelholm,56.246131,12.8726986,Sweden
89,Bardaï,21.333333,17.016667,Chad
90,Oslo,59.9416014,10.8972927,Norway
91,Zaporizhzhya,47.8388,35.139567,Ukraine
92,Selnica,46.0261155,16.0446553,Croatia
93,Austin,30.27,-97.74,United States
94,Övertorneå,66.3887667,23.3361439,Sweden
95,Mongu,-15.2735504,23.1501117,Zambia
96,Gala,55.612118,-2.7795629,China
97,Shiqiao,22.948016,113.366904,China
98,Carot,16.289185,119.90559,Philippines
99,Quxi,31.491169,120.31191,China
100,Saint-Tite,46.73336,-72.56581,Canada
101,Żarów,50.94076,16.49474,Poland
102,Agnibilékrou,7.1302807,-3.2030756,Ivory Coast
103,Topeka,39.1228935,-95.624767,United States
104,Apt,43.89144,5.381848,France
105,Črenšovci,46.5720029,16.2877346,Slovenia
106,Yablonovskiy,44.982137,38.9254064,Russia
107,Srpska Crnja,45.7333281,20.6693099,Serbia
108,Mulan,45.950582,128.043465,China
109,Beidaihehaibin,39.8230099,119.4891595,China
110,Shangyuan,27.522069,116.336069,China
111,Yangfeng,26.888665,112.616612,China
112,Mutum,-19.9125279,-41.4812771,Brazil
113,Khadyzhensk,44.418695,39.5314274,Russia
114,Esplanada,-11.7956851,-37.9447996,Brazil
115,Gaspra,44.4353271,34.1121629,Ukraine
116,Huangwei,30.6357285,116.5715868,China
117,Wenfeng Zhen,24.410255,117.416058,China
118,Haarlem,52.3626877,4.6195236,Netherlands
119,Qaffīn,32.433378,35.0843,Palestinian Territory
120,Dagar,30.2646273,78.5064473,China
121,Cigaleuh Kulon,-7.0028587,108.2362691,Indonesia
122,Oslo,59.9374398,10.7160051,Norway
123,Tumpakkepuh,-8.3031696,112.1132142,Indonesia
124,Rosso,16.5163413,-15.802612,Mauritania
125,Yegorlykskaya,55.3700696,39.0644305,Russia
126,Sabana de Parra,10.1197024,-69.0393069,Venezuela
127,Salinggara,-6.3270611,106.1169299,Indonesia
128,Qianfoling,27.33699,112.341117,China
129,Qibu,28.716258,116.872657,China
130,Ulster Spring,18.3092599,-77.5246795,Jamaica
131,Santaluz,-11.2049412,-39.4035876,Brazil
132,Pemba,-12.9732026,40.5178014,Mozambique
133,Argavand,40.1556743,44.4394002,Armenia
134,Podkamennaya Tunguska,61.609528,90.129524,Russia
135,Kysyl-Syr,63.897847,122.762485,Russia
136,Delson,45.3689432,-73.5408926,Canada
137,Sainte-Martine,47.5688259,-52.7079539,Canada
138,Pecatu,-8.8315362,115.1264522,Indonesia
139,Klatakan,-7.7013097,113.8882172,Indonesia
140,Tajao,10.2942407,123.5836143,Philippines
141,Tianning,31.779618,119.974991,China
142,Cruzeiro do Oeste,-23.7834562,-53.0762805,Brazil
143,Xo’jayli Shahri,42.4371884,59.6251488,Uzbekistan
144,Sokhumi,43.0015252,41.0234153,Georgia
145,Hongqi,35.30385,113.875245,China
146,Oropesa,-13.60277,-71.7676089,Peru
147,Uticyacu,-6.633333,-78.8,Peru
148,Gongrong,23.3790333,113.7632828,China
149,Braga,41.5678915,-8.4219601,Portugal
150,Pingtian,25.49872,119.790168,China
151,Aizi,24.622426,113.996757,China
152,Itaperuna,-21.1877747,-41.8799408,Brazil
153,Ljusdal,60.5381467,15.427113,Sweden
154,Donetsk,48.2751888,40.1995439,Russia
155,Bobojong,-6.7535737,107.260056,Indonesia
156,Daugavgrīva,57.0408915,24.0131821,Latvia
157,Lengshui,18.506048,110.037503,China
158,Dehang,24.754346,107.220298,China
159,Kishk-e Nakhūd,31.62519,65.05511,Afghanistan
160,San Pedro,14.3679657,121.0504535,Philippines
161,Saltsjö-Boo,59.3268743,18.2566877,Sweden
162,Bergen,60.4079862,5.3151044,Norway
163,Trinaterra,41.2610181,-8.5728738,Portugal
164,Jaboticabal,-21.2525138,-48.3256762,Brazil
165,Daping,24.094765,116.00509,China
166,Pandasan,14.593975,121.0038631,Philippines
167,København,55.6720347,12.5911341,Denmark
168,Västra Frölunda,57.6491924,11.8884682,Sweden
169,Qingshan,30.63963,114.385538,China
170,Raleigh,35.8054733,-78.6169494,United States
171,Rasony,55.9008577,28.8580531,Belarus
172,Sundsvall,62.390811,17.306927,Sweden
173,Baganha,40.9192881,-8.4188235,Portugal
174,Gwangjeok,37.8246038,126.9836808,South Korea
175,Marne-la-Vallée,48.840109,2.586253,France
176,Ursynów,51.569012,21.376182,Poland
177,Kruševica,45.0827061,18.5064033,Croatia
178,Vilarinho,40.1238547,-8.2410308,Portugal
179,Caazapá,-26.1827713,-56.3712327,Paraguay
180,Cincinnati,39.1335733,-84.4356468,United States
181,‘Ibrī,23.2359238,56.4943984,Oman
182,Remedios,7.027766,-74.692965,Colombia
183,Chifeng,42.25785,118.886931,China
184,Doksy,50.5658445,14.6542767,Czech Republic
185,Santa Lucia,17.1056791,120.4557309,Philippines
186,Sanligang,31.492565,113.079333,China
187,Watthana Nakhon,13.7315145,100.5692601,Thailand
188,Nacka,59.3120521,18.1969429,Sweden
189,Sansanné-Mango,10.3550571,0.4738293,Togo
190,Tallbīsah,34.8422936,36.7307641,Syria
191,Retreat,-34.0736398,18.470633,South Africa
192,Kibondo,-3.5837638,30.7177509,Tanzania
193,Wangxian,30.807667,108.408661,China
194,Non Sila,16.3270679,103.4916438,Thailand
195,Tanjung Kidul,-7.4394897,109.2251697,Indonesia
196,Jianghong,22.000143,100.771678,China
197,Oslo,59.9522962,10.7668266,Norway
198,Mollebamba,-6.0419882,-76.9700669,Peru
199,Guri i Zi,42.0438495,19.5731734,Albania
200,Leigongmiao,29.25486,111.626472,China
201,Russeifa,32.0169411,36.0494112,Jordan
202,Virolahti,61.722009,23.3256027,Finland
203,Georgīevka,52.7572749,78.2041704,Kazakhstan
204,Jhang Sadr,31.2633956,72.3110986,Pakistan
205,Teknāf,21.0556654,92.2039933,Bangladesh
206,Zhourui,24.202112,116.555397,China
207,Sainte-Martine,47.5688259,-52.7079539,Canada
208,Chupa,66.2745295,33.0615453,Russia
209,General Pico,-34.7382955,-58.3820197,Argentina
210,Kurume,37.3785618,140.3460747,Japan
211,Sarishābāri,24.7512974,89.8282604,Bangladesh
212,Guang’an,30.456224,106.633088,China
213,Guizi,35.024634,110.99742,China
214,Jatimulyo,-7.9431343,112.6183751,Indonesia
215,Tianfu,39.9121556,-86.2208503,China
216,Évry,48.6277459,2.4381665,France
217,Labuhan,-6.372081,105.832298,Indonesia
218,Tualangcut,4.427369,98.057241,Indonesia
219,Portela,41.8157545,-8.3644939,Portugal
220,Bagu,-8.6276559,116.1979749,Indonesia
221,Dębica,51.64438,22.561217,Poland
222,Eustaquio Lopez,10.8051872,122.9796906,Philippines
223,Suso,17.3595778,120.4571858,Philippines
224,Rafaela,-30.9392897,-61.5429067,Argentina
225,Włoszakowice,51.9569286,16.3557044,Poland
226,Nombre de Jesús,15.3749395,-86.6850292,Honduras
227,Ballivor,53.1915379,-6.1191333,Ireland
228,Sohag,26.5590737,31.6956705,Egypt
229,Rubiataba,-15.1662376,-49.8052085,Brazil
230,Bordeaux,44.386415,-0.318174,France
231,Malianchuan,39.035613,115.213446,China
232,Moorreesburg,-33.1519145,18.6642088,South Africa
233,Algarrobo,10.2453984,-74.041805,Colombia
234,Vukojevci,45.4796482,18.1514065,Croatia
235,Caldas da Felgueira,40.4878138,-7.8661822,Portugal
236,Huangzhan,25.234479,110.179953,China
237,Taiping,53.3004898,-6.2634596,China
238,Milín,49.6933676,14.0095887,Czech Republic
239,Stodolishche,54.1858234,32.6467726,Russia
240,Mabyan,13.6343413,46.0563212,Yemen
241,Garagoa,5.082453,-73.365046,Colombia
242,Gevgelija,41.139883,22.5397872,Macedonia
243,Ake-Eze,5.91677,7.67615,Nigeria
244,Whistler,50.1164,-122.96946,Canada
245,Zhonghechang,27.86732,107.42099,China
246,Molugan,8.5328493,124.5621837,Philippines
247,Perelhal,41.5318938,-8.6939907,Portugal
248,Lorient,44.8671415,4.9157564,France
249,Kose,59.1690031,25.208352,Estonia
250,Masinloc,15.537073,119.950207,Philippines
251,Kardamás,37.7668391,21.3383382,Greece
252,Garmo,31.254198,94.915316,China
253,Potou,21.244721,110.455332,China
254,Huntsville,34.7299999,-86.59,United States
255,Mori,38.1230866,140.0547688,Japan
256,Kotli Lohārān,32.5887159,74.5022234,Pakistan
257,Jinchang,38.520089,102.188043,China
258,Khotsimsk,53.4334331,32.4706123,Belarus
259,Yanjiang,30.108216,104.677091,China
260,Kovářská,50.4322664,13.0716999,Czech Republic
261,Jembayan Hitam,-6.2176613,106.8679827,Indonesia
262,Volkhov,59.927607,32.296821,Russia
263,Jūrmala,56.947079,23.6168485,Latvia
264,Versailles,48.8048649,2.1203554,France
265,Aizkraukle,56.5930499,25.2431539,Latvia
266,Karakol,42.4782102,78.3955986,Kyrgyzstan
267,Tambir,-7.9396646,111.4109784,Indonesia
268,Goya,-34.3048508,-58.7739249,Argentina
269,Wanmingang,29.402881,109.927743,China
270,Ake-Eze,5.91677,7.67615,Nigeria
271,Baiheshan,41.933917,126.422806,China
272,Arnaía,40.4868316,23.5963957,Greece
273,Nam Kliang,14.9128369,104.5422225,Thailand
274,Ccuntuma,-12.0950161,-77.0266968,Peru
275,Donghu,28.685085,115.899262,China
276,Burqah,31.896059,35.254768,Palestinian Territory
277,Lionel Town,17.8099915,-77.2347674,Jamaica
278,Sławoborze,53.8917777,15.7118669,Poland
279,Murowana Goślina,52.55694,17.0351289,Poland
280,Agdzhabedy,40.0257239,47.3290937,Azerbaijan
281,Yingchengzi,45.169716,126.959837,China
282,Ulan Hua,41.5220136,111.7047656,China
283,Svay Rieng,11.142722,105.8290298,Cambodia
284,Apucarana,-23.5586314,-51.4650904,Brazil
285,Chimbote,-9.0633364,-78.589011,Peru
286,Bayt Ūlā,31.598422,35.026375,Palestinian Territory
287,Chengui,29.866911,115.61166,China
288,Kousséri,12.087083,15.0148322,Cameroon
289,Chichibu,35.9528417,139.0791865,Japan
290,Äänekoski,62.6014659,25.7278806,Finland
291,Liji,39.930136,119.576091,China
292,Cerro,23.1004248,-82.3858672,Cuba
293,Sutton,45.3710038,-73.5312291,Canada
294,San Isidro,-12.0971829,-77.032585,Peru
295,Santa Cruz,19.6938888,-99.2591666,Mexico
296,Kozhevnikovo,55.1192905,61.6026474,Russia
297,Jarash,32.2746515,35.8960765,Jordan
298,Quimistán,15.3483742,-88.3967536,Honduras
299,Beaverton,45.4863306,-122.8020059,United States
300,Jingkou,32.19828,119.47016,China
301,Arīḩā,35.8138694,36.6077207,Syria
302,Kafr Baţnā,33.5142841,36.3741834,Syria
303,Arsenal,-20.103416,57.5391225,Mauritius
304,Guantang,24.304673,113.136459,China
305,Mechrá Belqsiri,34.5739933,-5.9515399,Morocco
306,Molsheim,48.5372073,7.5002842,France
307,Luoyang,34.620202,112.453926,China
308,Yengimahalla,41.356361,82.63142,China
309,Krapina,46.160492,15.8724103,Croatia
310,Shuangxiqiao,29.020827,110.637506,China
311,Kímolos,36.8173373,24.5599015,Greece
312,Nanyuan,39.7825,116.3877778,China
313,Jiuhua,30.4333333,117.8333333,China
314,Qarqīn,37.4202216,66.0195894,Afghanistan
315,Pępowo,51.7597721,17.1196937,Poland
316,Basiao,10.0698222,124.5514906,Philippines
317,Toledo,-24.7289094,-53.7365827,Brazil
318,Quirinópolis,-18.4476442,-50.4551598,Brazil
319,Vágia,38.3540386,23.2037131,Greece
320,Catarman,9.128588,124.672209,Philippines
321,Stebnyk,49.30155,23.5414504,Ukraine
322,Norakert,40.2627673,45.7004954,Armenia
323,Matviyivka,47.07472,35.14444,Ukraine
324,Baicaogou,43.267167,129.618208,China
325,Tual,-5.5680317,132.3446399,Indonesia
326,Hyesan-si,41.387384,128.1744945,North Korea
327,Koppies,-27.2290951,27.587737,South Africa
328,Zavidovo,56.5236763,36.5260122,Russia
329,Merrifield,38.87,-77.23,United States
330,Bibirevo,55.893363,37.601984,Russia
331,Kongolo,-5.387502,26.9911288,Democratic Republic of the Congo
332,San Nicolas,13.9300945,120.9522977,Philippines
333,Zelenogradsk,54.9562342,20.4747022,Russia
334,Belgorod,50.4534011,36.8469573,Russia
335,Punkaharju,61.7904399,29.3146856,Finland
336,Shangzhang,22.543096,114.057865,China
337,Jiudu,28.824583,104.641931,China
338,Luzino,54.5412717,18.0936055,Poland
339,Stockholm,59.330173,18.0551861,Sweden
340,San Diego,19.2000657,-98.8016731,Mexico
341,Jönköping,57.7831228,14.197982,Sweden
342,Rokietnica,52.5094874,16.7474972,Poland
343,Dugcal,13.6261714,123.1606556,Philippines
344,Glatik,-6.9569954,112.5408991,Indonesia
345,Joroinen,62.2969314,27.1753576,Finland
346,Livadiya,44.4751299,34.1479155,Ukraine
347,Kivsharivka,49.6297207,37.6810464,Ukraine
348,Kota Kinabalu,5.9840985,116.0761121,Malaysia
349,Крива Паланка,40.9933396,21.4188894,Macedonia
350,Bouaflé,6.9827437,-5.7405139,Ivory Coast
351,Yola,9.2034963,12.4953899,Nigeria
352,San Andrés Villa Seca,14.5791223,-91.5850599,Guatemala
353,Sechenovo,55.224467,45.8810866,Russia
354,Shankill,53.231395,-6.124065,Ireland
355,Mateus Leme,-20.017643,-44.4370606,Brazil
356,Kayasula,44.3239335,44.994265,Russia
357,Lakinsk,56.0160374,39.9476278,Russia
358,Niba,31.16384,98.558093,China
359,Höshigiyn-Ar,47.55717,106.96333,Mongolia
360,Bornu Yassu,12.2711071,12.5807242,Nigeria
361,Songwon,37.5599805,127.0051893,South Korea
362,Nara-shi,34.6518908,135.7845381,Japan
363,Chucatamani,-17.4806228,-70.1229081,Peru
364,Vila do Bispo,37.0827754,-8.9092899,Portugal
365,Silvares,40.5544993,-7.9843201,Portugal
366,Fuenlabrada,40.2748289,-3.7968574,Spain
367,Suizhou,31.690215,113.382458,China
368,Yamkino,55.931354,38.3911151,Russia
369,5 de Mayo,19.2874648,-99.6494479,Mexico
370,Wang Nam Yen,13.5215952,102.1714454,Thailand
371,Nan’an,24.960385,118.386279,China
372,Kristiansund N,63.1204712,7.8745882,Norway
373,Daja Lorong,-6.931773,113.600427,Indonesia
374,Sobradinho,-29.4130611,-53.024918,Brazil
375,Toritama,-8.0030329,-36.0784687,Brazil
376,Khon Buri,14.4349111,102.1632718,Thailand
377,Santa Maria,14.5806413,121.0036417,Philippines
378,San Cristobal,20.6597358,-101.4750896,Mexico
379,Quintã,40.8576169,-8.5183398,Portugal
380,Asamboka,-10.7731,123.0326,Indonesia
381,Valuyki,50.2350707,38.0596975,Russia
382,Bílina Kyselka,50.5416315,13.7594816,Czech Republic
383,Ramiriquí,5.401841,-73.335738,Colombia
384,Lugang,31.2371338,121.498955,China
385,Tiandu,18.2849318,109.5907878,China
386,Huntsville,34.7299999,-86.59,United States
387,Alikalia,9.1505664,-11.3913379,Sierra Leone
388,Bolou,-10.4966636,121.9729053,Indonesia
389,Kortkeros,61.8171356,51.5568693,Russia
390,Anjihai,44.362833,85.35698,China
391,Lingshan,31.4299792,120.096494,China
392,Kozhevnikovo,55.1192905,61.6026474,Russia
393,Höviyn Am,47.23123,98.5714,Mongolia
394,Sahagún,8.9410756,-75.4944768,Colombia
395,Le Havre,48.0386685,-2.9231898,France
396,Jingtan,38.984289,118.498758,China
397,Bojszowy Nowe,50.0436913,19.0921373,Poland
398,Birsa,-6.9092185,107.6426797,Indonesia
399,Río Blanco,12.9316668,-85.2230744,Nicaragua
400,Nuwaybi‘a,28.9734441,34.6534332,Egypt
401,Delvinë,39.9481364,20.0955891,Albania
402,Gandara,41.3371316,-8.5394062,Portugal
403,Tyshkivka,48.4978938,30.9365392,Ukraine
404,Xiaoshanzi,44.906512,127.60654,China
405,Chalon-sur-Saône,46.791046,4.840663,France
406,Jialu,47.1666507,8.2894205,China
407,Itajubá,-22.4231821,-45.4535162,Brazil
408,Palermo,2.886246,-75.433419,Colombia
409,Longhua,22.656408,114.019351,China
410,Cheqiao,30.081941,120.495065,China
411,Valada,39.0800897,-8.7620955,Portugal
412,Birmingham,52.4608207,-1.8886845,United Kingdom
413,Tønsberg,59.9191279,11.369756,Norway
414,Trinity Ville,17.9618459,-76.5228101,Jamaica
415,Naguilian,14.7292218,121.051001,Philippines
416,Taipingzhuang,46.844779,125.374569,China
417,Vikbolandet,58.5014132,16.8950982,Sweden
418,Gunan,27.6252995,111.8568586,China
419,Atikokan,48.75667,-91.62409,Canada
420,Yanglinshi,29.978663,111.782745,China
421,Cerrito,-27.3330369,-57.6382382,Paraguay
422,Wāling,27.9771813,83.7677148,Nepal
423,Dalkey,53.2780047,-6.1072403,Ireland
424,Khāliş,33.8430437,44.5219358,Iraq
425,Dresden,51.0144934,13.6972162,Germany
426,Chingas,-9.1194883,-76.9909475,Peru
427,Ajdabiya,30.214647,20.1402594,Libya
428,Ţāqchah Khānah,36.61922,69.62805,Afghanistan
429,Huachos,-13.24679,-75.534477,Peru
430,Pargas,60.2025952,24.904004,Finland
431,Solna,59.3551153,17.9700257,Sweden
432,Barrunchal,38.7409837,-9.3605586,Portugal
433,Bairro Assunção Piedade,38.8757453,-7.1728338,Portugal
434,Baraba,56.7423811,61.7593478,Russia
435,Handa,37.3571829,138.5794706,Japan
436,Askaniya Nova,46.4566661,33.8723511,Ukraine
437,Caiyuan,37.87059,112.548879,China
438,Týn nad Vltavou,49.2234017,14.4205698,Czech Republic
439,Seka,13.7768017,100.5593109,Thailand
440,Takum,7.2576942,9.9744535,Nigeria
441,Mengcheng Chengguanzhen,33.267964,116.557663,China
442,Gardutanjak,-6.312525,106.1049278,Indonesia
443,Zaniemyśl,52.1567272,17.1602866,Poland
444,Anao,15.7290855,120.6271711,Philippines
445,Stenungsund,58.0767446,11.8416522,Sweden
446,Anchau,10.9638707,8.3937532,Nigeria
447,Santa Clara,14.4711923,121.0206914,Philippines
448,Wawrzeńczyce,50.1143147,20.2689645,Poland
449,Zharkent,44.166512,79.999974,Kazakhstan
450,Jinjing,24.781681,118.552365,China
451,Krojo,-6.076643,106.4288088,Indonesia
452,Hagi,32.4286242,130.6493402,Japan
453,Yupiltepeque,14.1950983,-89.7920356,Guatemala
454,Río Segundo,-34.588234,-58.6876178,Argentina
455,Barberena,14.307125,-90.363048,Guatemala
456,Zaoxi,32.92312,115.805297,China
457,Samamiya,11.3460734,9.6591939,Nigeria
458,Bangbayang,-6.8734228,107.074614,Indonesia
459,Colotenango,15.4053048,-91.7142051,Guatemala
460,Anyar,-6.0924606,105.9112424,Indonesia
461,Amiens,49.8905368,2.3081396,France
462,Mhlume,-26.043518,31.8135556,Swaziland
463,Osias,14.5655554,121.0335158,Philippines
464,Dongjin,32.026097,112.232692,China
465,Satka,55.0467482,59.0082549,Russia
466,Dumaguil,6.5592478,124.6846104,Philippines
467,Tsybulevka,47.4047584,29.1057554,Ukraine
468,Protección,15.0312765,-88.6458421,Honduras
469,Évry,48.6277459,2.4381665,France
470,Vichadero,-31.7790432,-54.6945328,Uruguay
471,Zvole,49.8398148,16.9143454,Czech Republic
472,Arroteia,41.946541,-8.5374197,Portugal
473,Benito Juarez,19.4102526,-99.0073673,Mexico
474,Kudowa-Zdrój,50.4333399,16.2304168,Poland
475,Araraquara,-21.8022635,-48.184644,Brazil
476,Elena,-32.5711982,-64.3878273,Argentina
477,Cibunut,-6.9278214,108.3474974,Indonesia
478,Banyuurip,-7.2719005,112.7196817,Indonesia
479,Líbano,4.920956,-75.063129,Colombia
480,Cuozhou,35.950418,101.925248,China
481,Protección,15.0312765,-88.6458421,Honduras
482,Sechenovo,55.224467,45.8810866,Russia
483,Vykhino-Zhulebino,55.7133263,37.8049211,Russia
484,Nkwerre,5.7647948,7.0982581,Nigeria
485,Xibali,40.446264,115.345484,China
486,Seulimeum,5.4724418,95.624767,Indonesia
487,Ždánice,49.5474598,16.2620907,Czech Republic
488,Longbei,28.879936,106.935101,China
489,Strohonivka,44.9425871,34.1865097,Ukraine
490,Woloara,-8.759734,121.8306397,Indonesia
491,Aix-en-Provence,43.4914335,5.3707209,France
492,Baojia,34.363184,107.237743,China
493,Chiang Rai,19.9104798,99.840576,Thailand
494,Biga,29.8867765,-95.5491595,Philippines
495,Boyeros,22.9861757,-82.4102628,Cuba
496,Balyaga,51.1490898,108.9418923,Russia
497,Hanna,51.63343,-111.90181,Canada
498,Teculután,14.990034,-89.719295,Guatemala
499,Burrel,41.6089452,20.006257,Albania
500,Dagui,39.9378208,116.4103205,China
501,Karangmelok,-8.0401628,113.831703,Indonesia
502,Nowy Dwór Gdański,54.20801,19.11753,Poland
503,Padej,45.8235836,20.1844504,Serbia
504,Suncheon,34.950637,127.4872135,South Korea
505,Infantas,41.4222316,-8.2464998,Portugal
506,Wuyang,33.437877,113.609286,China
507,Al Manshāh,26.4745056,31.8002447,Egypt
508,Paris 20,43.4945737,5.8978018,France
509,Jinzhou,41.095685,121.1268459,China
510,Neuss,51.1615558,6.774529,Germany
511,Fuchun,41.880872,123.957208,China
512,Cibaregbeg Dua,-6.9108565,107.1768464,Indonesia
513,Bailang,34.888685,111.607282,China
514,Xinxing,22.69569,112.225334,China
515,Kiukainen,61.2320157,22.0614693,Finland
516,Zhamog,29.849977,95.775494,China
517,Qobu,40.404991,49.7072207,Azerbaijan
518,Kuhmo,64.128759,29.5197329,Finland
519,Chojata,-16.4,-70.733333,Peru
520,Simuay,7.2333331,124.25,Philippines
521,Vicente Guerrero,23.7321074,-103.9832684,Mexico
522,San Agustín,14.8182209,-88.9377949,Honduras
523,Guangshan Chengguanzhen,32.206857,114.539918,China
524,Arroyo Salado,19.539165,-69.9013281,Dominican Republic
525,Yanbei,24.111841,112.910406,China
526,Příbram,49.1954831,16.2990752,Czech Republic
527,Nentón,15.8303364,-91.7183488,Guatemala
528,Ruchihe,29.276391,109.709717,China
529,Uzgen,40.767421,73.3030715,Kyrgyzstan
530,Sokółka,52.6057865,21.8949682,Poland
531,Guaramirim,-26.4743278,-49.0023,Brazil
532,Yangtan,28.260189,117.069202,China
533,Kisarawe,-7.2623348,38.7368187,Tanzania
534,Sumanding,-6.5640911,110.8642328,Indonesia
535,Kashima,37.1845893,136.9002781,Japan
536,Belopa,-3.3939043,120.3608455,Indonesia
537,Itaberaí,-16.0222492,-49.8004866,Brazil
538,Soras,-14.116667,-73.616667,Peru
539,Vabalninkas,55.96667,24.75,Lithuania
540,De la Paz,14.6135888,121.0957927,Philippines
541,Hukou,29.731101,116.251947,China
542,Ivanovo,56.1428751,40.3798477,Russia
543,Huilong,30.304377,103.686294,China
544,Urus-Martan,43.1298714,45.5357156,Russia
545,Abelheira,39.282307,-9.3084342,Portugal
546,Żabno,50.13334,20.8861701,Poland
547,Kademangan,-8.1995552,112.1060214,Indonesia
548,Vancouver,45.616422,-122.5804528,United States
549,Aguilares,-27.4308908,-65.6147813,Argentina
550,Matumadua,-9.38948,119.75371,Indonesia
551,Laç,41.6412644,19.705595,Albania
552,Tyresö,59.2243365,18.2620496,Sweden
553,Świebodzice,50.8822214,16.3195565,Poland
554,Zbrosławice,50.4072694,18.7082571,Poland
555,Potok Złoty,50.3095461,17.5223977,Poland
556,Mangaratiba,-22.9161789,-44.0389554,Brazil
557,Tonkino,57.3725,46.4583999,Russia
558,Tanjung Pandan,-2.7416678,107.6529988,Indonesia
559,Lesnoye,55.0155118,22.2004824,Russia
560,Santa Teresa,14.5999366,121.012518,Philippines
561,Ribeira Seca,37.807809,-25.541625,Portugal
562,Prachamtakham,14.0644874,101.5156074,Thailand
563,Luzhany,48.3627105,25.7753797,Ukraine
564,Helixi,30.637762,119.009039,China
565,Peuara,-8.241702,123.769227,Indonesia
566,Xincheng,34.26645,108.960747,China
567,Brovary,50.511083,30.7909,Ukraine
568,Tasīl,32.8335722,35.9642215,Syria
569,Heshui,35.819227,108.019549,China
570,Devnya,43.2001798,27.905933,Bulgaria
571,Mayskiy,45.1253665,42.0223291,Russia
572,Fucun,29.233463,119.902455,China
573,Mi’ersi,31.038781,114.5465571,China
574,Hyesan-si,41.387384,128.1744945,North Korea
575,Svalyava,48.5428567,22.9948916,Ukraine
576,Nurlat,54.3231922,50.8118074,Russia
577,Żabbar,35.877092,14.544192,Malta
578,Tagakpan,7.0708519,125.4704601,Philippines
579,Balung Barat,-8.3027766,113.5222556,Indonesia
580,El Copé,8.438605,-80.679207,Panama
581,Cubará,6.8793892,-72.189,Colombia
582,Dingle,10.9991938,122.6717828,Philippines
583,Fenlu,29.784315,115.910958,China
584,Mikulovice,50.2895924,17.3087111,Czech Republic
585,Carrazeda de Ansiães,41.240005,-7.3038414,Portugal
586,Clarin,8.5531389,123.7669004,Philippines
587,Cikulahan,-7.1569,108.0375,Indonesia
588,Mukō,34.9565646,135.7023712,Japan
589,Maltahöhe,-24.8380587,16.9801346,Namibia
590,Taubaté,-23.0246201,-45.5558631,Brazil
591,Tagana-an,9.7133717,125.5705547,Philippines
592,Dimitrov,40.0072152,44.4880651,Armenia
593,Abuxarda,38.7188171,-9.4194921,Portugal
594,Bromma,59.3319856,17.9512673,Sweden
595,Long Layu,3.61023,115.69993,Indonesia
596,Viesīte,56.3448609,25.5603229,Latvia
597,Xiaohe,35.202503,102.521807,China
598,Dean,51.900276,-1.504654,United Kingdom
599,Vynohradiv,48.1463491,23.0302123,Ukraine
600,Tsiombe,-25.3168473,45.4863093,Madagascar
601,Kuybyshev,55.4109698,78.2605492,Russia
602,Bałtów,51.0177556,21.5418795,Poland
603,Villa Cañás,-34.0028385,-61.6048678,Argentina
604,Tongli,31.148896,120.722695,China
605,Cojutepeque,13.7208503,-88.9365976,El Salvador
606,Geidam,12.6256834,11.9804613,Nigeria
607,Norak,38.3833041,69.2698737,Tajikistan
608,Nikhom Phattana,16.650007,103.889068,Thailand
609,Karonga,-9.952536,33.9248222,Malawi
610,Tegalagung,-6.9126426,112.0386945,Indonesia
611,Itbayat,20.7236765,121.8097656,Philippines
612,Tanarara,-9.7390437,119.8699493,Indonesia
613,Caçapava,-23.0939881,-45.6964547,Brazil
614,Patimuan,-7.5904342,108.7630664,Indonesia
615,Muyi,34.386714,107.445334,China
616,Vilya,55.2571473,42.2051732,Russia
617,Otorohanga,-38.1854517,175.2102748,New Zealand
618,Guxi,39.909969,116.459299,China
619,Najd al Jumā‘ī,13.91581,44.32414,Yemen
620,Sharïngol,49.2575136,106.4385875,Mongolia
621,Granada,4.524233,-74.356481,Colombia
622,Cangshan,26,99.8333333,China
623,Berlin,52.415113,13.1468678,Germany
624,Tanudan,17.2906593,121.1666679,Philippines
625,Jati,-6.8300602,110.8374104,Indonesia
626,Surin,16.4311476,103.5083998,Thailand
627,Mounlapamôk,14.33481,105.86858,Laos
628,Tarkwa,5.301832,-1.9930466,Ghana
629,Baranovichi,53.1255737,26.0091684,Belarus
630,Agra,41.5054085,-8.4697574,Portugal
631,Dortmund,51.4918437,7.5319762,Germany
632,Manutapen,-10.1790674,123.5770012,Indonesia
633,Nara,15.1689378,-7.2895663,Mali
634,Żoliborz,50.1823264,19.2871769,Poland
635,San Andros,25.0522614,-78.0430817,Bahamas
636,Kore,-8.3993683,118.2702036,Indonesia
637,Cimuncang,-6.1130137,106.1610343,Indonesia
638,Tungoo,0.74692,124.26106,Indonesia
639,Stari Grad,43.1839958,16.5992505,Croatia
640,Obubra,6.085685,8.3280086,Nigeria
641,Laixi,36.889084,120.51769,China
642,Tayabamba,-8.2769363,-77.3008506,Peru
643,Magaria,13.0034658,8.9079782,Niger
644,Zhouji,29.708692,120.246863,China
645,Kovdor,67.6043051,30.4421656,Russia
646,Temayang,-7.3328576,111.9075351,Indonesia
647,Slavs’ke,48.834578,23.4472258,Ukraine
648,Korotych,49.9482828,36.0391858,Ukraine
649,Guadalupe,25.6765837,-100.2602364,Mexico
650,Kushovë,40.7879444,20.1886551,Albania
651,Panacan,9.2559967,118.4057103,Philippines
652,Kyprínos,41.5752196,26.2288126,Greece
653,El Doncello,1.600501,-75.0377502,Colombia
654,Xike,31.228026,121.454211,China
655,Kericho,-0.3688967,35.286286,Kenya
656,San Vicente de Moravia,9.9748039,-84.0322316,Costa Rica
657,Rentung,-8.4236237,120.6027296,Indonesia
658,Poços de Caldas,-21.7853787,-46.5619303,Brazil
659,Araguari,-18.6517964,-48.1904503,Brazil
660,Welibo,-9.7083227,119.3279386,Indonesia
661,Bayan,47.2495437,107.5408308,Mongolia
662,Pau,43.2916776,-0.3696612,France
663,Porto Seguro,-16.4443537,-39.0653656,Brazil
664,Semuda,-3.755635,114.8033337,Indonesia
665,Escuintla,14.2724013,-90.7746443,Guatemala
666,Houzhai,31.437058,119.975172,China
667,Doropayung,-6.7235696,111.1436581,Indonesia
668,Chengbei,36.650038,101.766228,China
669,Kramat,-6.1840029,106.8466001,Indonesia
670,Arujá,-23.3969682,-46.3204265,Brazil
671,Chrzanów,50.404585,20.9948039,Poland
672,Ponte da Pedra,39.7869548,-8.8245607,Portugal
673,Meadow Lake,54.1212091,-108.4295552,Canada
674,Kota Kinabalu,5.9840985,116.0761121,Malaysia
675,Carrières-sur-Seine,48.911035,2.16555,France
676,Sovetskiy,61.3602942,63.5639414,Russia
677,Coronel Belisle,-38.9396947,-68.2376186,Argentina
678,Pedro II,-4.4338427,-41.4537623,Brazil
679,Aourir,30.511343,-9.6536246,Morocco
680,Buffalo,42.9202891,-78.7589558,United States
681,Moyuan,31.559502,120.364428,China
682,Linglu,31.9852068,119.5719162,China
683,Naguilian,14.7292218,121.051001,Philippines
684,Paiisa,13.9289816,121.3567739,Philippines
685,Handaqi,25.461545,118.31969,China
686,Flen,58.962927,16.4145518,Sweden
687,Dabaozi,39.8007621,116.504048,China
688,Chibuto,-24.6967014,33.544808,Mozambique
689,Yangcun,22.170437,111.791539,China
690,Metz,49.1441362,6.1519975,France
691,Xiangyun,25.48385,100.550945,China
692,Ten’gushevo,-22.6091889,-47.4073665,Russia
693,Leping,28.97844,117.151796,China
694,Dobříš,49.781138,14.1671734,Czech Republic
695,Ardazubre,40.2295229,-8.5664387,Portugal
696,Talakag,8.2321816,124.602106,Philippines
697,Butterworth,5.4552197,100.4115631,Malaysia
698,Sojo,-12.1140973,-77.0445279,Peru
699,Fakel,57.6294504,53.0252053,Russia
700,Mencon,-6.8364154,111.1980575,Indonesia
701,Pangkajene,-4.805035,119.5571677,Indonesia
702,Zhuping,27.062407,108.739519,China
703,Burao,9.5259166,45.5346307,Somalia
704,Zheleznodorozhnyy,54.357088,21.315311,Russia
705,Leigu,31.774247,104.432024,China
706,Rotunda,14.2042871,121.0829852,Philippines
707,Lemery,14.5665991,121.0022623,Philippines
708,Dzhankoy,45.7089869,34.3874785,Ukraine
709,Kíti,34.855441,33.5784007,Cyprus
710,Santo Niño,14.3839328,121.050126,Philippines
711,Messina,38.2739241,15.5562304,Italy
712,Tanjay,14.6925714,121.0468246,Philippines
713,Stefanavíkion,39.46667,22.73333,Greece
714,Ma‘bar,14.7953378,44.2905281,Yemen
715,Morden,49.1980747,-98.102542,Canada
716,Temuco,-38.7359018,-72.5903739,Chile
717,Paiçandu,-23.4554707,-52.0423373,Brazil
718,Göteborg,57.7330292,12.0793963,Sweden
719,Potok Złoty,50.3095461,17.5223977,Poland
720,Jalālpur Pīrwāla,29.5079723,71.2430776,Pakistan
721,Sokolnice,49.1232748,16.7144439,Czech Republic
722,Zhaowu,36.1093631,103.694265,China
723,Dome,5.6562651,-0.2338473,Ghana
724,Los Pinos,19.3387759,-99.1497466,Mexico
725,Sendang,-7.935395,111.8210866,Indonesia
726,Sokobanteng,-8.0806,111.7084,Indonesia
727,Qifang,23.5359158,116.3544565,China
728,Kakegawa,34.7728913,138.0126666,Japan
729,Xibin,24.804061,118.609289,China
730,Jīwani,25.2284355,61.8951809,Pakistan
731,Norton,52.2679288,-1.1202549,United Kingdom
732,Thala,35.5732078,8.6683097,Tunisia
733,Kon Dơng,14.0452728,108.255546,Vietnam
734,Itapuí,-22.2275469,-48.7379527,Brazil
735,Itacoatiara,-3.3339824,-58.5543821,Brazil
736,Tanlad,14.4588552,121.001601,Philippines
737,Ibagué,4.5120691,-75.2245693,Colombia
738,Lañgub,7.1018539,125.5626726,Philippines
739,Matias Olímpio,-3.6988282,-42.5901672,Brazil
740,Si Khoraphum,14.9445596,103.7983521,Thailand
741,Novyye Kuz’minki,55.7,37.75,Russia
742,Waru,-7.3511436,112.7688416,Indonesia
743,Strasbourg,48.5966574,7.7744139,France
744,Wissous,48.7276331,2.281825,France
745,Greenhills,53.3122864,-6.336393,Ireland
746,Qanliko’l,42.8299079,59.0072317,Uzbekistan
747,Concepcion,14.6688068,121.1138058,Philippines
748,Paris 14,43.4945737,5.8978018,France
749,Wurno,13.2838698,5.4201377,Nigeria
750,Norrköping,58.5785836,16.1948921,Sweden
751,Touguinha,41.3715365,-8.7162646,Portugal
752,Zlynka,48.4811908,31.5431206,Ukraine
753,Sumurber,-6.9480217,112.4440473,Indonesia
754,Pasirpanjang,0.845865,108.8796091,Indonesia
755,Cabagan,17.424274,121.779585,Philippines
756,Otan Aiyegbaju,7.945451,4.7872834,Nigeria
757,A-da-Gorda,39.3458414,-9.1695689,Portugal
758,Zhenshan,23.337683,112.674488,China
759,Zongga,28.851022,85.297513,China
760,Namp’o,38.7522606,125.3246769,North Korea
761,Cikujang,-6.6889038,107.6185727,Indonesia
762,Yantang,23.15998,113.327132,China
763,Osieczany,49.8401383,20.0045112,Poland
764,Wates,-7.893728,110.1434668,Indonesia
765,Delicias,7.5683211,-72.4450467,Venezuela
766,Lapa do Lobo,40.4709245,-7.9185148,Portugal
767,Zaïo,34.9363523,-2.7431421,Morocco
768,Thị Trấn Tam Điệp,20.1564917,105.8736936,Vietnam
769,Prómachoi,41.0251448,22.0056062,Greece
770,Kiryū,36.4045915,139.2613339,Japan
771,Girey,43.1613333,46.0016156,Russia
772,Huangqiang,22.2304314,113.5411611,China
773,Charata,-37.1534439,-56.8913573,Argentina
774,Bao’an,22.555259,113.884019,China
775,Obukhiv,50.109938,30.6298846,Ukraine
776,Borovskiy,57.0473862,65.7110972,Russia
777,Caburan,5.9201411,125.6500276,Philippines
778,Tamnag,6.5999999,124.8499985,Philippines
779,Tangtuzhui,21.470022,110.541691,China
780,Tawau,4.243113,117.893335,Malaysia
781,Delft,51.9850245,4.3871967,Netherlands
782,Zhangpu,24.117102,117.613808,China
783,Huangqi,44.284636,129.459707,China
784,Ramalhal,39.1457699,-9.234085,Portugal
785,As Sūq al Jadīd,15.82496,44.06204,Yemen
786,Dayou,26.141854,116.188408,China
787,Kebonan,-7.355927,110.6422198,Indonesia
788,Yur’yev-Pol’skiy,56.5005833,39.6794042,Russia
789,Fenhe,37.8298386,112.5511892,China
790,San Mariano,16.9846184,122.0047563,Philippines
791,Alingsås,57.9289181,12.5332741,Sweden
792,Cabimas,10.3895862,-71.4692843,Venezuela
793,Semënovskoye,55.5146696,35.8272389,Russia
794,Skuratovskiy,53.4405231,36.8430918,Russia
795,Zhonghuopu,29.751072,113.994756,China
796,Bandaragung,-5.3003056,105.6823124,Indonesia
797,Thetford-Mines,46.1098585,-71.2983257,Canada
798,Matiguás,12.8383201,-85.4607639,Nicaragua
799,Tapado,41.1509639,-7.9737002,Portugal
800,Pingqiao,32.101031,114.125656,China
801,Cungapmimbo,-7.7794,114.2878,Indonesia
802,Aviá Terai,-26.68532,-60.7292,Argentina
803,Beo,4.2292379,126.798485,Indonesia
804,Jardin,25.8903957,-97.4990069,Mexico
805,Färgelanda,58.567559,11.994926,Sweden
806,Xiashu,32.169335,119.19095,China
807,Zhangtan,29.963494,118.331054,China
808,Ramain,8.0030266,124.3465661,Philippines
809,Pasonobenu,-9.5502,119.1705,Indonesia
810,Rosais,38.7191234,-28.2519314,Portugal
811,Korczyna,49.7549498,21.8253619,Poland
812,Los Pinos,19.3387759,-99.1497466,Mexico
813,Corralito,-33.0061376,-60.6722815,Argentina
814,Jinshanpu,39.296173,113.690698,China
815,Birmingham,33.3639393,-86.8119917,United States
816,Pingzhuang,42.040521,119.2987161,China
817,Kimberley,49.6885534,-115.9220734,Canada
818,Hidalgo,20.0910963,-98.7623874,Mexico
819,Taekas,-9.4118909,124.4918988,Indonesia
820,Żarów,50.94076,16.49474,Poland
821,Xiangrong,28.2412186,112.9513185,China
822,Thị Trấn Quan Hóa,20.3814569,105.1171246,Vietnam
823,Tilcara,-34.6562639,-58.421763,Argentina
824,Vila de Rei,39.6758453,-8.1457625,Portugal
825,Cikajang,-7.3856497,107.7991545,Indonesia
826,Torre de Moncorvo,41.1731486,-7.0530281,Portugal
827,Skien,59.2254827,9.5589227,Norway
828,Ts’khinvali,42.2214597,43.9644051,Georgia
829,Ninh Giang,20.7491091,106.3699271,Vietnam
830,Whitchurch,51.4057505,-2.5573746,United Kingdom
831,Muḩradah,35.2487361,36.5715924,Syria
832,Concepción,14.7673116,-91.133737,Guatemala
833,Chokwé,-24.5323166,32.9831998,Mozambique
834,Xinlong,30.939169,100.311368,China
835,Granada,37.1691224,-3.6002547,Spain
836,Gangjia,42.016401,121.668489,China
837,Xinglong,40.417358,117.500558,China
838,Alejo Ledesma,-33.6055625,-62.6252102,Argentina
839,Wałcz,53.271709,16.4804071,Poland
840,Alcácer do Sal,38.299031,-8.4830925,Portugal
841,Kalāt-e Nāderī,36.99532,59.76472,Iran
842,Zhosaly,45.4852437,64.0818612,Kazakhstan
843,Pianbai,21.514163,111.013556,China
844,Křenovice,49.3304143,17.2726367,Czech Republic
845,Osinniki,53.5484776,87.2598304,Russia
846,Mporokoso,-9.3790072,30.1242853,Zambia
847,Xiangride,36.089488,97.863214,China
848,Badeggi,9.0568265,6.1434201,Nigeria
849,Bungoma,0.5695252,34.5583766,Kenya
850,Fada N'gourma,12.0601649,0.3654204,Burkina Faso
851,Chemerivtsi,49.0186498,26.3397803,Ukraine
852,Labuhan,-6.372081,105.832298,Indonesia
853,Baon,6.8113706,126.0868349,Philippines
854,Ajdabiya,30.214647,20.1402594,Libya
855,Stari Grad,43.1839958,16.5992505,Croatia
856,Det Udom,14.8548457,105.0791228,Thailand
857,Beiyang,23.028301,115.84573,China
858,Pangascasan,16.1091703,120.0885626,Philippines
859,Futian,22.521523,114.055023,China
860,Sidi Smaïl,32.8285457,-8.5116903,Morocco
861,Östersund,63.1689874,14.6907161,Sweden
862,Gasa,28.0185886,89.9253233,Bhutan
863,Porta,41.9502131,-8.5304169,Portugal
864,Licheng,25.431829,119.015255,China
865,Qiaolin,29.6970749,106.6160052,China
866,Pangkajene,-4.805035,119.5571677,Indonesia
867,Boyeros,22.9861757,-82.4102628,Cuba
868,Kebonan,-7.355927,110.6422198,Indonesia
869,Annecy,45.925854,6.1250598,France
870,Sing Buri,14.8126417,100.2936683,Thailand
871,Tanjung,-8.4114856,116.1713917,Indonesia
872,Tamra,32.852247,35.201315,Israel
873,Danxi,28.229271,120.997332,China
874,Ningshan Chengguanzhen,33.30992,108.307889,China
875,Madison,43.0709333,-89.3274391,United States
876,Dom Pedro,-4.9843552,-44.4370606,Brazil
877,Lovrenc na Pohorju,46.5402775,15.3884817,Slovenia
878,Xilai,32.116246,120.436781,China
879,Knoxville,35.94,-83.99,United States
880,Granja,41.0032627,-8.1697329,Portugal
881,Cililitan,-6.2632684,106.8635643,Indonesia
882,Akim Oda,5.9295558,-0.9725085,Ghana
883,Cortes,14.6074523,121.1136216,Philippines
884,Laboulaye,-31.4834373,-64.2145666,Argentina
885,Munka-Ljungby,56.2507818,12.9929582,Sweden
886,Montes Velhos,37.9380466,-8.184571,Portugal
887,Paris 15,48.8466523,2.2582125,France
888,Fuxing,36.639033,114.462061,China
889,Yaoundé,3.8480325,11.5020752,Cameroon
890,Pavlivka,50.6211008,24.4598077,Ukraine
891,Pucheng,27.917263,118.541256,China
892,Novoselitsa,48.2211075,26.2712988,Ukraine
893,Imulolong,-8.5167606,123.385081,Indonesia
894,Zelenogradsk,54.9562342,20.4747022,Russia
895,Angoulême,45.638468,0.129895,France
896,Barra do Bugres,-15.0705872,-57.1882847,Brazil
897,Besah,-7.1387719,111.639243,Indonesia
898,Caotang,23.2997268,113.323144,China
899,Kökar,59.9207975,20.9091298,Aland Islands
900,Oripää,60.8560471,22.6973045,Finland
901,Oni,-10.082036,124.458641,Indonesia
902,Kouloúra,40.5454837,22.3173143,Greece
903,Segovia,7.079604,-74.699095,Colombia
904,Abobo,5.4328871,-4.0388918,Ivory Coast
905,San Eugenio,16.394652,120.356297,Philippines
906,Taochuan,35.858731,112.389438,China
907,Serrana,-21.2105166,-47.625836,Brazil
908,Boro Utara,-8.0095874,111.913497,Indonesia
909,Chama,-11.2166885,33.1604555,Zambia
910,Parnamirim,-8.1347511,-39.734338,Brazil
911,Nila Dua,-6.2185725,106.9723202,Indonesia
912,Banjar Gunungpande,-8.6135235,115.1472926,Indonesia
913,El Corozo,8.5681393,-70.3583879,Venezuela
914,Stockholm,59.3257766,18.0470069,Sweden
915,Yongning,22.75839,108.487368,China
916,Panaitólion,38.582529,21.4467686,Greece
917,Gedian,30.536294,114.648658,China
918,Seongnam-si,37.4449168,127.1388684,South Korea
919,Na'ale,31.962594,35.065976,Israel
920,Ríohacha,11.3421375,-73.0405277,Colombia
921,Güiria,10.584981,-62.3037176,Venezuela
922,Kedungbulu,-7.2457269,112.3738772,Indonesia
923,Öjebyn,65.4026,21.1886684,Sweden
924,Lazaro Cardenas,17.9567646,-102.1943485,Mexico
925,Sifala,-0.9342008,100.3617345,Indonesia
926,Bosilovo,41.44056,22.72778,Macedonia
927,Villaguay,-38.9467974,-68.1042424,Argentina
928,Hekou,22.529403,103.93935,China
929,Armenta,15.5724296,-88.0350859,Honduras
930,Waajid,3.809294,43.2461055,Somalia
931,Retenggoma,-8.6662,122.068,Indonesia
932,Baoli,31.982984,120.246992,China
933,Trondheim,63.4400274,10.4024274,Norway
934,Sumberdangdang,-8.0591896,112.2014675,Indonesia
935,Bitica,1.4243635,9.6216084,Equatorial Guinea
936,Neftegorsk,52.803304,51.1735574,Russia
937,Garmeh,33.5282289,55.0396912,Iran
938,Shaliangzi,37.910325,93.341907,China
939,Amahusu,-3.7331933,128.1530099,Indonesia
940,Cermee,-7.7726324,114.0428542,Indonesia
941,Vlkoš,49.395784,17.4190192,Czech Republic
942,Jiangcun,22.579117,113.081508,China
943,Minneapolis,44.903044,-93.2332244,United States
944,Požarevac,44.6208353,21.1842054,Serbia
945,Montpellier,43.6167208,3.8299106,France
946,Līkak,30.8936954,50.0932428,Iran
947,Hässleholm,56.1629286,13.8037716,Sweden
948,Darłowo,54.4398875,16.3827955,Poland
949,Pittsburgh,40.5053499,-80.04928,United States
950,Vedène,43.9763746,4.9052738,France
951,Tagta,41.65041,59.9164,Turkmenistan
952,Wudangshan,23.1639193,113.3423334,China
953,Gołkowice,49.9092319,18.5234252,Poland
954,Malaga,36.7203407,-4.419495,Spain
955,Tignoan,14.5682829,121.6224914,Philippines
956,Cavaillon,43.840232,5.037751,France
957,Täby,59.4291534,18.0684457,Sweden
958,Gaspar Hernández,19.2933162,-70.2583451,Dominican Republic
959,Donggu,23.020673,113.751799,China
960,Březová,49.794945,17.865273,Czech Republic
961,Khust,48.1734633,23.2972476,Ukraine
962,Galapa,10.898923,-74.883823,Colombia
963,Megalochórion,39.55944,21.84083,Greece
964,Yuping,27.236635,108.912375,China
965,Zhangjiayuan,28.532422,118.592707,China
966,Torsby,57.857193,11.91635,Sweden
967,Rio Grande da Serra,-23.749953,-46.39769,Brazil
968,Phu Kradueng,16.9023422,101.7523854,Thailand
969,Maha Sarakham,16.1991156,103.2839975,Thailand
970,Al Badārī,26.9915774,31.4155591,Egypt
971,Valencia,39.4798873,-0.3979657,Spain
972,Thành phố Bạc Liêu,9.2573324,105.7557791,Vietnam
973,Jāsk,25.6577006,57.7856677,Iran
974,Pedome,41.414967,-8.3881947,Portugal
975,La Rochelle,47.9318074,5.2893597,France
976,Saint-Quentin,49.8990161,3.3651417,France
977,Bastos,-21.9221397,-50.7317774,Brazil
978,Haikou,20.044412,110.198286,China
979,Vilar do Pinheiro,41.2658376,-8.6729604,Portugal
980,Hongdun,38.253338,109.503758,China
981,Tiblawan,6.6450416,125.3013286,Philippines
982,Cerro Corá,-31.43337,-64.2142976,Argentina
983,Kiên Lương,10.3043903,104.6354631,Vietnam
984,Bigoudine,30.7298739,-9.2162139,Morocco
985,El Playón,7.470498,-73.203211,Colombia
986,Plumtree,-20.488399,27.8018337,Zimbabwe
987,Pameče,46.5448561,15.0941863,Slovenia
988,Cosquín,-34.6891726,-58.4714156,Argentina
989,Sunan,39.2008462,125.6765362,North Korea
990,Yisa,31.02364,121.215916,China
991,Yajin,42.891255,129.508945,China
992,Pu’an,25.784135,104.953062,China
993,Lapachito,-27.4887196,-58.9495941,Argentina
994,Chashan,23.076233,113.86913,China
995,Vitim,53.3519942,83.7638288,Russia
996,Bratislava,48.1206294,17.1168892,Slovakia
997,Tayginka,55.6246827,60.5063547,Russia
998,Indramayu,-6.33731,108.3258329,Indonesia
999,Kiltamagh,53.8533151,-8.9949917,Ireland
1000,Cete,41.1733305,-8.3619748,Portugal
